{"type":"FeatureCollection","features":[{"geometry":{"type":"Point","coordinates":[-73.93991589795753,40.80309708558282]},"type":"Feature","id":58958,"properties":{"state_province":"","city":"","address_line1":"103 EAST 122 STREET","known_use":"community garden","postal_code":"10035","owner":"New York City Department of Housing Preservation and Development","owner_type":"public"}},{"geometry":{"type":"Point","coordinates":[-73.9422636395,40.8340267518]},"type":"Feature","id":55156,"properties":{"state_province":"NY","city":null,"address_line1":"513 WEST 158 STREET","known_use":"community garden","postal_code":"10032","owner":"New York City Department of Parks and Recreation","owner_type":"public"}},{"geometry":{"type":"Point","coordinates":[-73.94686515945918,40.791035786307546]},"type":"Feature","id":58502,"properties":{"state_province":"NY","city":null,"address_line1":"1655 LEXINGTON AVENUE","known_use":"community garden","postal_code":"10029","owner":"HOPE COMMUNITY, INC.","owner_type":"private"}},{"geometry":{"type":"Point","coordinates":[-73.94426207603509,40.70848310852412]},"type":"Feature","id":58497,"properties":{"state_province":null,"city":null,"address_line1":"134 SCHOLES STREET","known_use":"community garden","postal_code":"11206","owner":"New York Garden Trust / New York Restoration Project","owner_type":"private"}},{"geometry":{"type":"Point","coordinates":[-73.9784644289,40.7268051414]},"type":"Feature","id":55078,"properties":{"state_province":"NY","city":null,"address_line1":"626 EAST 11 STREET","known_use":"community garden","postal_code":"10009","owner":"New York City Department of Parks and Recreation","owner_type":"public"}},{"geometry":{"type":"Point","coordinates":[-73.90765373990186,40.68014360272078]},"type":"Feature","id":53903,"properties":{"state_province":null,"city":null,"address_line1":"235 HULL STREET","known_use":"community garden","postal_code":"11233","owner":"New York City Department of Parks and Recreation","owner_type":"public"}},{"geometry":{"type":"Point","coordinates":[-73.949273875515,40.82355491437659]},"type":"Feature","id":58503,"properties":{"state_province":"NY","city":null,"address_line1":"1656 AMSTERDAM AVENUE","known_use":"community garden","postal_code":"10031","owner":"Manhattan Land Trust","owner_type":"private"}},{"geometry":{"type":"Point","coordinates":[-73.87905936848836,40.839384470070996]},"type":"Feature","id":58415,"properties":{"state_province":"NY","city":"","address_line1":"N/S DeVoe at E. 177th St. & Wyatt St.","known_use":"community garden","postal_code":"10460","owner":"New York City Department of Transportation","owner_type":"public"}},{"geometry":{"type":"Point","coordinates":[-73.9452208162242,40.72008766579298]},"type":"Feature","id":58536,"properties":{"state_province":"NY","city":null,"address_line1":"178 BAYARD STREET","known_use":"community garden","postal_code":"10013","owner":"FAY VITALE","owner_type":"private"}},{"geometry":{"type":"Point","coordinates":[-74.0104656633,40.6753670225]},"type":"Feature","id":54166,"properties":{"state_province":"NY","city":"","address_line1":"11 WOLCOTT STREET","known_use":"community garden","postal_code":"11231","owner":"Brooklyn Public Library","owner_type":"public"}},{"geometry":{"type":"Point","coordinates":[-74.00366322532483,40.682466770909926]},"type":"Feature","id":54169,"properties":{"state_province":null,"city":null,"address_line1":"281 COLUMBIA STREET","known_use":"community garden","postal_code":"11231","owner":"New York City Department of Parks and Recreation","owner_type":"public"}},{"geometry":{"type":"Point","coordinates":[-73.8714334593,40.7561481617]},"type":"Feature","id":55267,"properties":{"state_province":"NY","city":null,"address_line1":"33-28   97 STREET","known_use":"community garden","postal_code":"11368","owner":"New York City Department of Parks and Recreation","owner_type":"public"}},{"geometry":{"type":"Point","coordinates":[-73.9464419408,40.7970656163]},"type":"Feature","id":57782,"properties":{"state_province":"NY","city":null,"address_line1":"42-40 EAST 112 STREET","known_use":"community garden","postal_code":"10029","owner":"New York City Department of Housing Preservation and Development","owner_type":"public"}},{"geometry":{"type":"Point","coordinates":[-73.9456948385,40.7964257449]},"type":"Feature","id":57770,"properties":{"state_province":"NY","city":null,"address_line1":"95 EAST 111 STREET","known_use":"community garden","postal_code":"10029","owner":"New York City Department of Housing Preservation and Development","owner_type":"public"}},{"geometry":{"type":"Point","coordinates":[-73.8601162425749,40.7413709545546]},"type":"Feature","id":55342,"properties":{"state_province":"NY","city":null,"address_line1":"52-01 101 STREET","known_use":"community garden","postal_code":"11368","owner":"New York City Department of Parks and Recreation","owner_type":"public"}},{"geometry":{"type":"Point","coordinates":[-73.99311120928208,40.70129341192602]},"type":"Feature","id":58638,"properties":{"state_province":"NY","city":"","address_line1":"Northwest corner of Hicks and Poplar Streets","known_use":"community garden","postal_code":"11201","owner":"New York City Department of Transportation","owner_type":"public"}},{"geometry":{"type":"Point","coordinates":[-73.96765262041832,40.67807188050707]},"type":"Feature","id":58643,"properties":{"state_province":null,"city":null,"address_line1":"252 ST MARKS AVENUE","known_use":"community garden","postal_code":"11238","owner":"BROOKLYN ALLIANCE OF NEIGHBORHOOD GARDENS (BANG) LAND TRUST","owner_type":"private"}},{"geometry":{"type":"Point","coordinates":[-73.9430914381,40.829501131]},"type":"Feature","id":54665,"properties":{"state_province":"NY","city":null,"address_line1":"W152 ST","known_use":"community garden","postal_code":"10031","owner":"New York City Department of Environmental Protection","owner_type":"public"}},{"geometry":{"type":"Point","coordinates":[-73.9088942661607,40.83491014305952]},"type":"Feature","id":58393,"properties":{"state_province":"","city":"","address_line1":"1328 CLAY AVENUE","known_use":"community garden","postal_code":"10456","owner":"New York Garden Trust / New York Restoration Project","owner_type":"private"}},{"geometry":{"type":"Point","coordinates":[-73.90876107207171,40.82204561797188]},"type":"Feature","id":58611,"properties":{"state_province":"NY","city":null,"address_line1":"869 EAGLE AVENUE","known_use":"community garden","postal_code":"10456","owner":"Bronx Land Trust","owner_type":"private"}},{"geometry":{"type":"Point","coordinates":[-73.9921408139,40.675575833]},"type":"Feature","id":54428,"properties":{"state_province":"NY","city":null,"address_line1":"2 2 AVENUE","known_use":"community green space","postal_code":"11215","owner":"New York City Department of Sanitation","owner_type":"public"}},{"geometry":{"type":"Point","coordinates":[-73.93531030542727,40.61958264077586]},"type":"Feature","id":58334,"properties":{"state_province":"NY","city":"","address_line1":"1550 HENDRICKSON STREET","known_use":"community garden","postal_code":"11234","owner":"CHURCH OF SAINT THOMAS AQUINAS","owner_type":"private"}},{"geometry":{"type":"Point","coordinates":[-73.90707041987497,40.69319750441157]},"type":"Feature","id":58840,"properties":{"state_province":"NY","city":"","address_line1":"315 ELDERT STREET","known_use":"community garden","postal_code":"11237","owner":"ALIANZA DE DAMAS UNID","owner_type":"private"}},{"geometry":{"type":"Point","coordinates":[-73.90707041987497,40.69319750441157]},"type":"Feature","id":58840,"properties":{"state_province":"NY","city":"","address_line1":"315 ELDERT STREET","known_use":"community garden","postal_code":"11237","owner":"ALIANZA DE DAMAS UNID","owner_type":"private"}},{"geometry":{"type":"Point","coordinates":[-73.91639754706809,40.69251344301338]},"type":"Feature","id":58749,"properties":{"state_province":"NY","city":"","address_line1":"146 WOODBINE STREET","known_use":"community garden","postal_code":"11221","owner":"Brooklyn Queens Land Trust","owner_type":"private"}},{"geometry":{"type":"Point","coordinates":[-73.94892481670271,40.661437231314004]},"type":"Feature","id":58675,"properties":{"state_province":"NY","city":"","address_line1":"432 LINCOLN ROAD","known_use":"community garden","postal_code":"11225","owner":"RC CH ST FRANCIS ASSI","owner_type":"private"}},{"geometry":{"type":"Point","coordinates":[-73.89913611850592,40.66118761157175]},"type":"Feature","id":58994,"properties":{"state_province":"","city":"","address_line1":"554 SNEDIKER AVENUE","known_use":"community garden","postal_code":"11207","owner":"New York City Department of Parks and Recreation","owner_type":"public"}},{"geometry":{"type":"Point","coordinates":[-73.9398419475,40.8225910316]},"type":"Feature","id":55146,"properties":{"state_province":"NY","city":null,"address_line1":"220 WEST 146 STREET","known_use":"community garden","postal_code":"10039","owner":"New York City Department of Parks and Recreation","owner_type":"public"}},{"geometry":{"type":"Point","coordinates":[-73.9254039109,40.8355733311]},"type":"Feature","id":55182,"properties":{"state_province":"NY","city":null,"address_line1":"1130 WOODYCREST AVENUE","known_use":"community garden","postal_code":"10452","owner":"New York City Department of Parks and Recreation","owner_type":"public"}},{"geometry":{"type":"Point","coordinates":[-73.9079527196,40.8435094056]},"type":"Feature","id":55222,"properties":{"state_province":"NY","city":null,"address_line1":"1685 WEEKS AVENUE","known_use":"community garden","postal_code":"10457","owner":"New York City Department of Parks and Recreation","owner_type":"public"}},{"geometry":{"type":"Point","coordinates":[-73.8070560034,40.7037091679]},"type":"Feature","id":55268,"properties":{"state_province":"NY","city":"","address_line1":"148-19 148 STREET","known_use":"community garden","postal_code":"11435","owner":"New York City Department of Parks and Recreation","owner_type":"public"}},{"geometry":{"type":"Point","coordinates":[-73.93997801788302,40.80853323237952]},"type":"Feature","id":58699,"properties":{"state_province":null,"city":null,"address_line1":"8 EAST 129 STREET","known_use":"community garden","postal_code":"10035","owner":"New York City Department of Parks and Recreation","owner_type":"public"}},{"geometry":{"type":"Point","coordinates":[-73.92344373351025,40.669851487788776]},"type":"Feature","id":58677,"properties":{"state_province":"NY","city":"","address_line1":"1642 ST JOHNS PLACE","known_use":"community garden","postal_code":"11233","owner":"Brooklyn Queens Land Trust","owner_type":"private"}},{"geometry":{"type":"Point","coordinates":[-73.91276881369036,40.825106760812886]},"type":"Feature","id":58322,"properties":{"state_province":null,"city":null,"address_line1":"924 MELROSE AVENUE","known_use":"community garden","postal_code":"10451","owner":"New York City Department of Parks and Recreation","owner_type":"public"}},{"geometry":{"type":"Point","coordinates":[-73.9405532902,40.7988138665]},"type":"Feature","id":55103,"properties":{"state_province":"NY","city":null,"address_line1":"172 EAST 117 STREET","known_use":"community garden","postal_code":"10035","owner":"New York City Department of Parks and Recreation","owner_type":"public"}},{"geometry":{"type":"Point","coordinates":[-73.9504925801009,40.807605455461136]},"type":"Feature","id":58534,"properties":{"state_province":"NY","city":null,"address_line1":"217 WEST 122 STREET","known_use":"community garden","postal_code":"10027","owner":"217 W. 122ND LLC","owner_type":"private"}},{"geometry":{"type":"Point","coordinates":[-73.9131656511295,40.836129191660085]},"type":"Feature","id":58414,"properties":{"state_province":null,"city":null,"address_line1":"1302 GRANT AVENUE","known_use":"community garden","postal_code":"10456","owner":"New York City Department of Parks and Recreation","owner_type":"public"}},{"geometry":{"type":"Point","coordinates":[-73.900967445,40.6752919403]},"type":"Feature","id":57154,"properties":{"state_province":"NY","city":null,"address_line1":"2530 ATLANTIC AVENUE","known_use":"community garden","postal_code":"11207","owner":"New York City Department of Citywide Administrative Services","owner_type":"public"}},{"geometry":{"type":"Point","coordinates":[-73.84391451863952,40.818277801010616]},"type":"Feature","id":58494,"properties":{"state_province":"","city":"","address_line1":"2311 LACOMBE AVENUE","known_use":"community garden","postal_code":"10473","owner":"New York City Department of Parks and Recreation","owner_type":"public"}},{"geometry":{"type":"Point","coordinates":[-73.90961007312242,40.84800052516742]},"type":"Feature","id":58308,"properties":{"state_province":null,"city":null,"address_line1":"1790 EAST 176 STREET","known_use":"community garden","postal_code":"10453","owner":"New York City Department of Parks and Recreation","owner_type":"public"}},{"geometry":{"type":"Point","coordinates":[-73.93635900216181,40.79786274233831]},"type":"Feature","id":58412,"properties":{"state_province":null,"city":null,"address_line1":"310-08 EAST 118 STREET","known_use":"community garden","postal_code":"10035","owner":"New York City Department of Parks and Recreation","owner_type":"public"}},{"geometry":{"type":"Point","coordinates":[-73.94103907245926,40.81612574752822]},"type":"Feature","id":58438,"properties":{"state_province":"","city":"","address_line1":"123 WEST 137 STREET","known_use":"community garden","postal_code":"10030","owner":"New York City Department of Parks and Recreation","owner_type":"public"}},{"geometry":{"type":"Point","coordinates":[-73.91885107963351,40.68882435159774]},"type":"Feature","id":58566,"properties":{"state_province":"NY","city":null,"address_line1":"974 MADISON STREET","known_use":"community garden","postal_code":"11221","owner":"New York Garden Trust / New York Restoration Project","owner_type":"private"}},{"geometry":{"type":"Point","coordinates":[-73.95225246780306,40.661233149360484]},"type":"Feature","id":58551,"properties":{"state_province":"NY","city":"","address_line1":"316 LINCOLN ROAD","known_use":"community garden","postal_code":"11225","owner":"New York City Department of Parks and Recreation","owner_type":"public"}},{"geometry":{"type":"Point","coordinates":[-73.95549207912914,40.68392256656328]},"type":"Feature","id":58565,"properties":{"state_province":null,"city":null,"address_line1":"88 MADISON STREET","known_use":"community garden","postal_code":"11216","owner":"New York City Department of Parks and Recreation","owner_type":"public"}},{"geometry":{"type":"Point","coordinates":[-73.94923140612639,40.788805616528094]},"type":"Feature","id":58422,"properties":{"state_province":null,"city":null,"address_line1":"123 EAST 100 STREET","known_use":"community garden","postal_code":"10029","owner":"New York City Department of Parks and Recreation","owner_type":"public"}},{"geometry":{"type":"Point","coordinates":[-73.99873687327401,40.72758317488968]},"type":"Feature","id":58549,"properties":{"state_province":"NY","city":"","address_line1":"509 LA GUARDIA PLACE","known_use":"community garden","postal_code":"10012","owner":"New York City Department of Transportation","owner_type":"public"}},{"geometry":{"type":"Point","coordinates":[-73.7985836739901,40.676163201979584]},"type":"Feature","id":58307,"properties":{"state_province":null,"city":null,"address_line1":"142 PLACE","known_use":"community garden","postal_code":"11436","owner":"New York City Department of Parks and Recreation","owner_type":"public"}},{"geometry":{"type":"Point","coordinates":[-73.92708012568828,40.83283765406938]},"type":"Feature","id":58692,"properties":{"state_province":null,"city":null,"address_line1":"ANDERSON AVENUE","known_use":"community garden","postal_code":"10452","owner":"New York Garden Trust / New York Restoration Project","owner_type":"private"}},{"geometry":{"type":"Point","coordinates":[-73.97796807320773,40.72426034318409]},"type":"Feature","id":58446,"properties":{"state_province":null,"city":null,"address_line1":"358-62 E 8 ST","known_use":"community garden","postal_code":"10009","owner":"New York City Department of Parks and Recreation","owner_type":"public"}},{"geometry":{"type":"Point","coordinates":[-73.77417301207714,40.68615669786686]},"type":"Feature","id":58581,"properties":{"state_province":"","city":"","address_line1":"118-18 MERRICK BOULEVARD","known_use":"community garden","postal_code":"11434","owner":"Brooklyn Queens Land Trust","owner_type":"private"}},{"geometry":{"type":"Point","coordinates":[-73.9345121383667,40.67353062080291]},"type":"Feature","id":58678,"properties":{"state_province":"NY","city":"","address_line1":"119 TROY AVENUE","known_use":"community garden","postal_code":"11213","owner":"New York City Department of Parks and Recreation","owner_type":"public"}},{"geometry":{"type":"Point","coordinates":[-73.9101989669,40.8341379887]},"type":"Feature","id":55181,"properties":{"state_province":"NY","city":null,"address_line1":"1280 TELLER AVENUE","known_use":"community garden","postal_code":"10456","owner":"New York City Department of Parks and Recreation","owner_type":"public"}},{"geometry":{"type":"Point","coordinates":[-73.98736699295812,40.68757915858553]},"type":"Feature","id":58703,"properties":{"state_province":"NY","city":"","address_line1":"346 ATLANTIC AVENUE","known_use":"community garden","postal_code":"11217","owner":"PRESBYTERY OF NEW YORK CITY","owner_type":"private"}},{"geometry":{"type":"Point","coordinates":[-73.92013845558894,40.81233942745433]},"type":"Feature","id":58363,"properties":{"state_province":"NY","city":null,"address_line1":"401 EAST 143 STREET","known_use":"community garden","postal_code":"10454","owner":"New York Garden Trust / New York Restoration Project","owner_type":"private"}},{"geometry":{"type":"Point","coordinates":[-73.8852721452713,40.67337601514888]},"type":"Feature","id":59004,"properties":{"state_province":"","city":"","address_line1":"2362 PITKIN AVENUE","known_use":"community garden","postal_code":"11207","owner":"New York City Department of Housing Preservation and Development","owner_type":"public"}},{"geometry":{"type":"Point","coordinates":[-73.9862146999942,40.724440348456]},"type":"Feature","id":55327,"properties":{"state_province":"NY","city":null,"address_line1":"150 EAST 4 STREET","known_use":"community garden","postal_code":"10009","owner":"New York City Department of Education","owner_type":"public"}},{"geometry":{"type":"Point","coordinates":[-73.85237894466098,40.83843244544043]},"type":"Feature","id":58471,"properties":{"state_province":"","city":"","address_line1":"CASTLE HILL AVENUE","known_use":"community garden","postal_code":"10462","owner":"New York Garden Trust / New York Restoration Project","owner_type":"private"}},{"geometry":{"type":"Point","coordinates":[-73.8762167745,40.6877704261]},"type":"Feature","id":54880,"properties":{"state_province":"NY","city":"","address_line1":"9 CHESTNUT STREET","known_use":"community green space","postal_code":"11208","owner":"New York City Department of Parks and Recreation","owner_type":"public"}},{"geometry":{"type":"Point","coordinates":[-73.8762167745,40.6877704261]},"type":"Feature","id":54880,"properties":{"state_province":"NY","city":"","address_line1":"9 CHESTNUT STREET","known_use":"community green space","postal_code":"11208","owner":"New York City Department of Parks and Recreation","owner_type":"public"}},{"geometry":{"type":"Point","coordinates":[-73.95364701747894,40.70790519856078]},"type":"Feature","id":57388,"properties":{"state_province":"NY","city":"","address_line1":"375 South 5th Street","known_use":"community garden","postal_code":"11211","owner":"New York City Department of Parks and Recreation","owner_type":"public"}},{"geometry":{"type":"Point","coordinates":[-73.95364701747894,40.70790519856078]},"type":"Feature","id":57388,"properties":{"state_province":"NY","city":"","address_line1":"375 South 5th Street","known_use":"community garden","postal_code":"11211","owner":"New York City Department of Parks and Recreation","owner_type":"public"}},{"geometry":{"type":"Point","coordinates":[-73.9792144767909,40.72230882629908]},"type":"Feature","id":58428,"properties":{"state_province":"","city":"","address_line1":"704 EAST 5 STREET","known_use":"community garden","postal_code":"10009","owner":"New York City Department of Parks and Recreation","owner_type":"public"}},{"geometry":{"type":"Point","coordinates":[-73.79133960167702,40.6946339859893]},"type":"Feature","id":58576,"properties":{"state_province":"","city":"","address_line1":"10856 UNION HALL STREET","known_use":"community garden","postal_code":"11433","owner":"New York City Department of Parks and Recreation","owner_type":"public"}},{"geometry":{"type":"Point","coordinates":[-73.91498692453843,40.823320318182695]},"type":"Feature","id":58645,"properties":{"state_province":null,"city":null,"address_line1":"383 EAST 159 STREET","known_use":"community garden","postal_code":"10451","owner":"New York City Department of Parks and Recreation","owner_type":"public"}},{"geometry":{"type":"Point","coordinates":[-73.927321676975,40.69073403578599]},"type":"Feature","id":58623,"properties":{"state_province":"NY","city":"","address_line1":"49 PATCHEN AVENUE","known_use":"community garden","postal_code":"11221","owner":"Brooklyn Queens Land Trust","owner_type":"private"}},{"geometry":{"type":"Point","coordinates":[-73.88134556028655,40.665364023942914]},"type":"Feature","id":53888,"properties":{"state_province":"","city":"","address_line1":"        CLEVELAND STREET","known_use":"community garden","postal_code":"11208","owner":"New York City Department of Parks and Recreation","owner_type":"public"}},{"geometry":{"type":"Point","coordinates":[-73.91174314726845,40.6796729333631]},"type":"Feature","id":58507,"properties":{"state_province":"NY","city":null,"address_line1":"145 HULL STREET","known_use":"community garden","postal_code":"11233","owner":"New York Garden Trust / New York Restoration Project","owner_type":"private"}},{"geometry":{"type":"Point","coordinates":[-73.90185356140137,40.6579950296846]},"type":"Feature","id":58882,"properties":{"state_province":"","city":"","address_line1":"103 NEW LOTS AVENUE","known_use":"community garden","postal_code":"11212","owner":"New York City Department of Parks and Recreation","owner_type":"public"}},{"geometry":{"type":"Point","coordinates":[-74.07691242346972,40.6394695802428]},"type":"Feature","id":59066,"properties":{"state_province":"NY","city":"","address_line1":"54 CENTRAL AVENUE","known_use":"parking lot","postal_code":"10301","owner":"Dormitory Authority of the State of New York","owner_type":"public"}},{"geometry":{"type":"Point","coordinates":[-73.73422296109095,40.693522656276954]},"type":"Feature","id":58371,"properties":{"state_province":"NY","city":"","address_line1":"LINDEN BOULEVARD","known_use":"community garden","postal_code":"11411","owner":"Brooklyn Queens Land Trust","owner_type":"private"}},{"geometry":{"type":"Point","coordinates":[-73.9486044756781,40.790948673409474]},"type":"Feature","id":58419,"properties":{"state_province":"NY","city":null,"address_line1":"105 EAST 103 STREET","known_use":"community garden","postal_code":"10029","owner":"New York Garden Trust / New York Restoration Project","owner_type":"private"}},{"geometry":{"type":"Point","coordinates":[-73.88101252535863,40.843841600663495]},"type":"Feature","id":58541,"properties":{"state_province":null,"city":null,"address_line1":"940 EAST 180 STREET","known_use":"community garden","postal_code":"10460","owner":"New York City Department of Parks and Recreation","owner_type":"public"}},{"geometry":{"type":"Point","coordinates":[-74.1537111997505,40.637600385435]},"type":"Feature","id":54928,"properties":{"state_province":"NY","city":"","address_line1":"RICHMOND TERRACE","known_use":"community green space","postal_code":"10303","owner":"New York City Department of Parks and Recreation","owner_type":"public"}},{"geometry":{"type":"Point","coordinates":[-73.98197847787432,40.72165930733105]},"type":"Feature","id":58624,"properties":{"state_province":null,"city":null,"address_line1":"238 EAST 2 STREET","known_use":"community garden","postal_code":"10009","owner":"New York City Department of Parks and Recreation","owner_type":"public"}},{"geometry":{"type":"Point","coordinates":[-73.98811366509435,40.76109430604171]},"type":"Feature","id":58573,"properties":{"state_province":"NY","city":"","address_line1":"315 WEST 47 STREET","known_use":"community garden","postal_code":"10036","owner":"SALVATION ARMY","owner_type":"private"}},{"geometry":{"type":"Point","coordinates":[-73.91006832735698,40.68583942969024]},"type":"Feature","id":58410,"properties":{"state_province":"NY","city":null,"address_line1":"1052 DECATUR STREET","known_use":"community garden","postal_code":"11207","owner":"New York Garden Trust / New York Restoration Project","owner_type":"private"}},{"geometry":{"type":"Point","coordinates":[-73.95030418601958,40.69426058269246]},"type":"Feature","id":53724,"properties":{"state_province":null,"city":null,"address_line1":"42 VERNON AVENUE","known_use":"community garden","postal_code":"11206","owner":"New York City Department of Parks and Recreation","owner_type":"public"}},{"geometry":{"type":"Point","coordinates":[-73.88102085387922,40.845901470879795]},"type":"Feature","id":58399,"properties":{"state_province":"NY","city":null,"address_line1":"2139 DALY AVENUE","known_use":"community garden","postal_code":"10460","owner":"Bronx Land Trust","owner_type":"private"}},{"geometry":{"type":"Point","coordinates":[-73.9184697509,40.8379290897]},"type":"Feature","id":56154,"properties":{"state_province":"NY","city":"","address_line1":"12 CLARKE PLACE","known_use":"parking lot","postal_code":"10452","owner":"New York City Department of Housing Preservation and Development","owner_type":"public"}},{"geometry":{"type":"Point","coordinates":[-73.929263734,40.8319088269]},"type":"Feature","id":55183,"properties":{"state_province":"NY","city":null,"address_line1":"96-98 WEST 163 STREET","known_use":"community garden","postal_code":"10452","owner":"New York City Department of Parks and Recreation","owner_type":"public"}},{"geometry":{"type":"Point","coordinates":[-73.8983022658,40.8319817456]},"type":"Feature","id":55231,"properties":{"state_province":"NY","city":null,"address_line1":"745 JENNINGS STREET","known_use":"community garden","postal_code":"10459","owner":"New York City Department of Parks and Recreation","owner_type":"public"}},{"geometry":{"type":"Point","coordinates":[-73.86972554399802,40.66971383103856]},"type":"Feature","id":58440,"properties":{"state_province":"NY","city":"","address_line1":"DUMONT AVENUE","known_use":"community garden","postal_code":"11208","owner":"Brooklyn Queens Land Trust","owner_type":"private"}},{"geometry":{"type":"Point","coordinates":[-73.95212920791839,40.80697727591251]},"type":"Feature","id":58449,"properties":{"state_province":null,"city":null,"address_line1":"WEST 121 STREET","known_use":"community garden","postal_code":"10027","owner":"Manhattan Land Trust","owner_type":"private"}},{"geometry":{"type":"Point","coordinates":[-73.8933192293,40.8476769906]},"type":"Feature","id":55237,"properties":{"state_province":"NY","city":null,"address_line1":"2014 LA FONTAINE AVENUE","known_use":"community garden","postal_code":"10457","owner":"New York City Department of Parks and Recreation","owner_type":"public"}},{"geometry":{"type":"Point","coordinates":[-73.94668465750966,40.797053731783606]},"type":"Feature","id":58587,"properties":{"state_province":null,"city":null,"address_line1":"1685 MADISON AVENUE","known_use":"community garden","postal_code":"10029","owner":"New York City Department of Housing Preservation and Development","owner_type":"public"}},{"geometry":{"type":"Point","coordinates":[-73.93710848126328,40.82773774369588]},"type":"Feature","id":58460,"properties":{"state_province":"NY","city":"","address_line1":"263 WEST 153 STREET","known_use":"community garden","postal_code":"10039","owner":"WEST 153RD STREET HOUSING DEVELOPMENT","owner_type":"private"}},{"geometry":{"type":"Point","coordinates":[-73.9396575252305,40.6793206189064]},"type":"Feature","id":57704,"properties":{"state_province":"NY","city":"","address_line1":"        HERKIMER STREET","known_use":"community garden","postal_code":"11213","owner":"New York City Department of Parks and Recreation","owner_type":"public"}},{"geometry":{"type":"Point","coordinates":[-73.9160156804837,40.678764017633746]},"type":"Feature","id":58272,"properties":{"state_province":"","city":"","address_line1":"        FULTON STREET","known_use":"community green space","postal_code":"11233","owner":"New York City Department of Parks and Recreation","owner_type":"public"}},{"geometry":{"type":"Point","coordinates":[-73.9160156804837,40.678764017633746]},"type":"Feature","id":58272,"properties":{"state_province":"","city":"","address_line1":"        FULTON STREET","known_use":"community green space","postal_code":"11233","owner":"New York City Department of Parks and Recreation","owner_type":"public"}},{"geometry":{"type":"Point","coordinates":[-73.97541669680538,40.68956956421705]},"type":"Feature","id":58485,"properties":{"state_province":"NY","city":"","address_line1":"2 SOUTH PORTLAND AVE","known_use":"community garden","postal_code":"11217","owner":"Brooklyn Queens Land Trust","owner_type":"private"}},{"geometry":{"type":"Point","coordinates":[-73.95098446605391,40.81115353637525]},"type":"Feature","id":58395,"properties":{"state_province":null,"city":null,"address_line1":"WEST 126 STREET","known_use":"community garden","postal_code":"10027","owner":"Manhattan Land Trust","owner_type":"private"}},{"geometry":{"type":"Point","coordinates":[-73.95098446605391,40.81115353637525]},"type":"Feature","id":58395,"properties":{"state_province":null,"city":null,"address_line1":"WEST 126 STREET","known_use":"community garden","postal_code":"10027","owner":"Manhattan Land Trust","owner_type":"private"}},{"geometry":{"type":"Point","coordinates":[-73.94463975551972,40.76730766810005]},"type":"Feature","id":58904,"properties":{"state_province":"NY","city":"","address_line1":"","known_use":"community garden","postal_code":"","owner":"Roosevelt Island Operating Corporation (on behalf of New York State)","owner_type":"public"}},{"geometry":{"type":"Point","coordinates":[-73.95129,40.688148]},"type":"Feature","id":53719,"properties":{"state_province":"NY","city":null,"address_line1":"490 GREENE AVENUE","known_use":"community garden","postal_code":"11216","owner":"New York City Department of Parks and Recreation","owner_type":"public"}},{"geometry":{"type":"Point","coordinates":[-74.01155332480297,40.71709074141084]},"type":"Feature","id":58734,"properties":{"state_province":"NY","city":null,"address_line1":"GREENWICH STREET","known_use":"community garden","postal_code":"10013","owner":"Dormitory Authority of the State of New York","owner_type":"public"}},{"geometry":{"type":"Point","coordinates":[-73.9096453824,40.6590170541]},"type":"Feature","id":53802,"properties":{"state_province":"NY","city":null,"address_line1":"148 NEWPORT STREET","known_use":"community garden","postal_code":"11212","owner":"New York City Department of Parks and Recreation","owner_type":"public"}},{"geometry":{"type":"Point","coordinates":[-73.96462379010194,40.646381461336084]},"type":"Feature","id":59131,"properties":{"state_province":"","city":"","address_line1":"ALBEMARLE ROAD","known_use":"community garden","postal_code":"11226","owner":"KLIOT, GREGORY","owner_type":"private"}},{"geometry":{"type":"Point","coordinates":[-73.88646841049194,40.668615612988134]},"type":"Feature","id":56800,"properties":{"state_province":"NY","city":"","address_line1":"567 BARBEY STREET","known_use":"community garden","postal_code":"11207","owner":"New York City Department of Parks and Recreation","owner_type":"public"}},{"geometry":{"type":"Point","coordinates":[-73.9783772764,40.7285398111]},"type":"Feature","id":55080,"properties":{"state_province":"NY","city":null,"address_line1":"209 AVENUE B","known_use":"community garden","postal_code":"10009","owner":"New York City Department of Parks and Recreation","owner_type":"public"}},{"geometry":{"type":"Point","coordinates":[-73.93462371360738,40.705846538903074]},"type":"Feature","id":59241,"properties":{"state_province":"NY","city":"","address_line1":"62 WHITE STREET","known_use":"park","postal_code":"11206","owner":"New York City Department of Environmental Protection","owner_type":"public"}},{"geometry":{"type":"Point","coordinates":[-73.77503613721544,40.686739853454974]},"type":"Feature","id":59064,"properties":{"state_province":"NY","city":"","address_line1":"MERRICK BOULEVARD","known_use":"community garden","postal_code":"11434","owner":"Brooklyn Queens Land Trust","owner_type":"private"}},{"geometry":{"type":"Point","coordinates":[-73.943149485,40.8123137341]},"type":"Feature","id":55133,"properties":{"state_province":"NY","city":null,"address_line1":"108 WEST 132 STREET","known_use":"community garden","postal_code":"10027","owner":"New York City Department of Parks and Recreation","owner_type":"public"}},{"geometry":{"type":"Point","coordinates":[-73.9426985934,40.8283124751]},"type":"Feature","id":55151,"properties":{"state_province":"NY","city":null,"address_line1":"481-89 CONVENT AVENUE","known_use":"community garden","postal_code":"10031","owner":"New York City Department of Parks and Recreation","owner_type":"public"}},{"geometry":{"type":"Point","coordinates":[-73.95942933557332,40.712534141563026]},"type":"Feature","id":59078,"properties":{"state_province":"","city":"","address_line1":"207 SOUTH 2 STREET","known_use":"community garden","postal_code":"","owner":"New York City Department of Parks and Recreation","owner_type":"public"}},{"geometry":{"type":"Point","coordinates":[-73.9442948649,40.7991204002]},"type":"Feature","id":55098,"properties":{"state_province":"NY","city":null,"address_line1":"71 EAST 115 STREET","known_use":"community garden","postal_code":"10029","owner":"New York City Department of Parks and Recreation","owner_type":"public"}},{"geometry":{"type":"Point","coordinates":[-73.90062214990252,40.67425773554774]},"type":"Feature","id":58748,"properties":{"state_province":"NY","city":null,"address_line1":"88 WILLIAMS AVENUE","known_use":"community garden","postal_code":"11207","owner":"New York Garden Trust / New York Restoration Project","owner_type":"private"}},{"geometry":{"type":"Point","coordinates":[-73.9793372973711,40.68113631300311]},"type":"Feature","id":58733,"properties":{"state_province":null,"city":null,"address_line1":"ST MARKS PLACE","known_use":"community garden","postal_code":"11217","owner":"BROOKLYN ALLIANCE OF NEIGHBORHOOD GARDENS (BANG) LAND TRUST","owner_type":"private"}},{"geometry":{"type":"Point","coordinates":[-73.9501307291,40.7809584385]},"type":"Feature","id":54858,"properties":{"state_province":"NY","city":null,"address_line1":"1751 2 AVENUE","known_use":"park","postal_code":"10128","owner":"New York City Department of Parks and Recreation","owner_type":"public"}},{"geometry":{"type":"Point","coordinates":[-73.8581144934,40.8076304786]},"type":"Feature","id":55252,"properties":{"state_province":"NY","city":null,"address_line1":"BRONX RIVER AVENUE","known_use":"community garden","postal_code":"","owner":"New York City Department of Parks and Recreation","owner_type":"public"}},{"geometry":{"type":"Point","coordinates":[-73.94010144798577,40.683443291121065]},"type":"Feature","id":58487,"properties":{"state_province":"NY","city":null,"address_line1":"392 HANCOCK STREET","known_use":"community garden","postal_code":"11216","owner":"New York Garden Trust / New York Restoration Project","owner_type":"private"}},{"geometry":{"type":"Point","coordinates":[-73.8878758214,40.8364694008]},"type":"Feature","id":55234,"properties":{"state_province":"NY","city":null,"address_line1":"1700 SOUTHERN BOULEVARD","known_use":"community garden","postal_code":"10460","owner":"New York City Department of Parks and Recreation","owner_type":"public"}},{"geometry":{"type":"Point","coordinates":[-73.85765343203197,40.757764073463576]},"type":"Feature","id":58569,"properties":{"state_province":"NY","city":null,"address_line1":"NORTHERN BOULEVARD","known_use":"community garden","postal_code":"11368","owner":"Brooklyn Queens Land Trust","owner_type":"private"}},{"geometry":{"type":"Point","coordinates":[-73.95735129881481,40.715893846834675]},"type":"Feature","id":58603,"properties":{"state_province":"NY","city":"","address_line1":"599 DRIGGS AVENUE","known_use":"community garden","postal_code":"11211","owner":"Brooklyn Queens Land Trust","owner_type":"private"}},{"geometry":{"type":"Point","coordinates":[-73.9572364781,40.6859681001]},"type":"Feature","id":55352,"properties":{"state_province":"NY","city":"","address_line1":"100 QUINCY STREET","known_use":"community garden","postal_code":"11238","owner":"New York City Department of Parks and Recreation","owner_type":"public"}},{"geometry":{"type":"Point","coordinates":[-73.9572364781,40.6859681001]},"type":"Feature","id":55352,"properties":{"state_province":"NY","city":"","address_line1":"100 QUINCY STREET","known_use":"community garden","postal_code":"11238","owner":"New York City Department of Parks and Recreation","owner_type":"public"}},{"geometry":{"type":"Point","coordinates":[-73.9468538685,40.7968242709]},"type":"Feature","id":57784,"properties":{"state_province":"NY","city":null,"address_line1":"1675 MADISON AVENUE","known_use":"community garden","postal_code":"10029","owner":"New York City Department of Housing Preservation and Development","owner_type":"public"}},{"geometry":{"type":"Point","coordinates":[-73.9120889353,40.8204707585]},"type":"Feature","id":57824,"properties":{"state_province":"NY","city":"","address_line1":"749 BROOK AVENUE","known_use":"community garden","postal_code":"10451","owner":"New York City Department of Parks and Recreation","owner_type":"public"}},{"geometry":{"type":"Point","coordinates":[-73.99475697086514,40.72219062301365]},"type":"Feature","id":58850,"properties":{"state_province":"NY","city":"","address_line1":"SPRING STREET","known_use":"community green space","postal_code":"10012","owner":"New York City Department of Citywide Administrative Services","owner_type":"public"}},{"geometry":{"type":"Point","coordinates":[-73.9379487562,40.8031409287]},"type":"Feature","id":57812,"properties":{"state_province":"NY","city":null,"address_line1":"151 EAST 123 STREET","known_use":"community garden","postal_code":"10035","owner":"New York City Department of Housing Preservation and Development","owner_type":"public"}},{"geometry":{"type":"Point","coordinates":[-73.93354745048924,40.796353686780776]},"type":"Feature","id":59117,"properties":{"state_province":"","city":"","address_line1":"433 EAST 117 STREET","known_use":"community garden","postal_code":"10035","owner":"Manhattan Land Trust","owner_type":"private"}},{"geometry":{"type":"Point","coordinates":[-73.95204127534409,40.808217523392294]},"type":"Feature","id":58608,"properties":{"state_province":null,"city":null,"address_line1":"277 WEST 122 STREET","known_use":"community garden","postal_code":"10027","owner":"New York City Department of Parks and Recreation","owner_type":"public"}},{"geometry":{"type":"Point","coordinates":[-73.88964682485475,40.821509667083156]},"type":"Feature","id":58582,"properties":{"state_province":"NY","city":"","address_line1":"927 FAILE STREET","known_use":"community garden","postal_code":"10474","owner":"New York Garden Trust / New York Restoration Project","owner_type":"private"}},{"geometry":{"type":"Point","coordinates":[-73.930605143,40.6995197737]},"type":"Feature","id":54463,"properties":{"state_province":"NY","city":"","address_line1":"120 JEFFERSON STREET","known_use":"community green space","postal_code":"11206","owner":"New York City Department of Parks and Recreation","owner_type":"public"}},{"geometry":{"type":"Point","coordinates":[-73.930605143,40.6995197737]},"type":"Feature","id":54463,"properties":{"state_province":"NY","city":"","address_line1":"120 JEFFERSON STREET","known_use":"community green space","postal_code":"11206","owner":"New York City Department of Parks and Recreation","owner_type":"public"}},{"geometry":{"type":"Point","coordinates":[-73.93158484652612,40.79651762193664]},"type":"Feature","id":57797,"properties":{"state_province":"","city":"","address_line1":"505 EAST 118 STREET","known_use":"community garden","postal_code":"10035","owner":"New York City Department of Housing Preservation and Development","owner_type":"public"}},{"geometry":{"type":"Point","coordinates":[-73.8871875154836,40.67417170911874]},"type":"Feature","id":53775,"properties":{"state_province":null,"city":null,"address_line1":"        GLENMORE AVENUE","known_use":"community garden","postal_code":"11207","owner":"New York City Department of Parks and Recreation","owner_type":"public"}},{"geometry":{"type":"Point","coordinates":[-73.9300711388,40.6894461477]},"type":"Feature","id":54235,"properties":{"state_province":"NY","city":null,"address_line1":"        MALCOLM X BOULEVARD","known_use":"community garden","postal_code":"11221","owner":"New York City Department of Parks and Recreation","owner_type":"public"}},{"geometry":{"type":"Point","coordinates":[-73.95058916372832,40.80764601093454]},"type":"Feature","id":58535,"properties":{"state_province":null,"city":null,"address_line1":"223 WEST 122 STREET","known_use":"community garden","postal_code":"10027","owner":"New York City Department of Parks and Recreation","owner_type":"public"}},{"geometry":{"type":"Point","coordinates":[-74.087673469,40.6202033421]},"type":"Feature","id":55932,"properties":{"state_province":"NY","city":null,"address_line1":"OAKLAND TERRACE","known_use":"community garden","postal_code":"","owner":"New York City Department of Citywide Administrative Services","owner_type":"public"}},{"geometry":{"type":"Point","coordinates":[-73.9468791811,40.7967858563]},"type":"Feature","id":57753,"properties":{"state_province":"NY","city":null,"address_line1":"1673 MADISON AVENUE","known_use":"community garden","postal_code":"10029","owner":"New York City Department of Housing Preservation and Development","owner_type":"public"}},{"geometry":{"type":"Point","coordinates":[-73.92191468776274,40.832125510705545]},"type":"Feature","id":58504,"properties":{"state_province":"NY","city":"","address_line1":"1068 GERARD AVENUE","known_use":"community garden","postal_code":"10452","owner":"1068 GERARD PARTNERSHIP L.P.","owner_type":"private"}},{"geometry":{"type":"Point","coordinates":[-73.94317952368428,40.79486421700614]},"type":"Feature","id":58702,"properties":{"state_province":null,"city":null,"address_line1":"178 EAST 111 STREET","known_use":"community garden","postal_code":"10029","owner":"New York Garden Trust / New York Restoration Project","owner_type":"private"}},{"geometry":{"type":"Point","coordinates":[-73.87567749725082,40.824671443248945]},"type":"Feature","id":58572,"properties":{"state_province":"NY","city":null,"address_line1":"1021 MANOR AVENUE","known_use":"community garden","postal_code":"10472","owner":"Bronx Land Trust","owner_type":"private"}},{"geometry":{"type":"Point","coordinates":[-73.88911901728846,40.67438981148398]},"type":"Feature","id":59136,"properties":{"state_province":"","city":"","address_line1":"573 GLENMORE AVENUE","known_use":"community garden","postal_code":"11207","owner":"New York City Department of Parks and Recreation","owner_type":"public"}},{"geometry":{"type":"Point","coordinates":[-73.9917887530155,40.724106020475]},"type":"Feature","id":55332,"properties":{"state_province":"NY","city":null,"address_line1":"285 BOWERY","known_use":"community garden","postal_code":"10002","owner":"New York City Department of Parks and Recreation","owner_type":"public"}},{"geometry":{"type":"Point","coordinates":[-73.95912426726251,40.68775341445005]},"type":"Feature","id":53947,"properties":{"state_province":"","city":"","address_line1":"        GREENE AVENUE","known_use":"community garden","postal_code":"11238","owner":"New York City Department of Parks and Recreation","owner_type":"public"}},{"geometry":{"type":"Point","coordinates":[-73.95824168283767,40.687821832202104]},"type":"Feature","id":58526,"properties":{"state_province":null,"city":null,"address_line1":"GREENE AVENUE","known_use":"community garden","postal_code":"11238","owner":"New York Garden Trust / New York Restoration Project","owner_type":"private"}},{"geometry":{"type":"Point","coordinates":[-73.9553237284955,40.69209329434485]},"type":"Feature","id":58349,"properties":{"state_province":null,"city":null,"address_line1":"933 BEDFORD AVENUE","known_use":"community garden","postal_code":"11205","owner":"New York Garden Trust / New York Restoration Project","owner_type":"private"}},{"geometry":{"type":"Point","coordinates":[-73.93504469785056,40.696382226564744]},"type":"Feature","id":58530,"properties":{"state_province":"NY","city":"","address_line1":"10 STUYVESANT AVENUE","known_use":"community garden","postal_code":"11221","owner":"Brooklyn Queens Land Trust","owner_type":"private"}},{"geometry":{"type":"Point","coordinates":[-74.12157435933375,40.634528027102526]},"type":"Feature","id":58528,"properties":{"state_province":null,"city":null,"address_line1":"BARKER STREET","known_use":"community garden","postal_code":"10310","owner":"New York City Department of Parks and Recreation","owner_type":"public"}},{"geometry":{"type":"Point","coordinates":[-73.73403087562174,40.77080426781701]},"type":"Feature","id":58625,"properties":{"state_province":"NY","city":"","address_line1":"VAN NOSTRAND COURT","known_use":"community garden","postal_code":"11362","owner":"New York Garden Trust / New York Restoration Project","owner_type":"private"}},{"geometry":{"type":"Point","coordinates":[-73.94993453226503,40.81077524742717]},"type":"Feature","id":58229,"properties":{"state_province":null,"city":null,"address_line1":"265 WEST 126 STREET","known_use":"community green space","postal_code":"10027","owner":"New York City Department of Housing Preservation and Development","owner_type":"public"}},{"geometry":{"type":"Point","coordinates":[-73.94993453226503,40.81077524742717]},"type":"Feature","id":58229,"properties":{"state_province":null,"city":null,"address_line1":"265 WEST 126 STREET","known_use":"community green space","postal_code":"10027","owner":"New York City Department of Housing Preservation and Development","owner_type":"public"}},{"geometry":{"type":"Point","coordinates":[-73.98936481818667,40.6900031589522]},"type":"Feature","id":58609,"properties":{"state_province":"NY","city":null,"address_line1":"112 SCHERMERHORN STREET","known_use":"community garden","postal_code":"11201","owner":"NEW YORK QUARTERLY MEETING OF THE RELIGIOUS SOCIETY OF FRIENDS","owner_type":"private"}},{"geometry":{"type":"Point","coordinates":[-73.88498490075447,40.84853688069299]},"type":"Feature","id":59141,"properties":{"state_province":"","city":"","address_line1":"2160 PROSPECT AVENUE","known_use":"community garden","postal_code":"10457","owner":"New York City Department of Parks and Recreation","owner_type":"public"}},{"geometry":{"type":"Point","coordinates":[-73.95307453981049,40.675224519409475]},"type":"Feature","id":58570,"properties":{"state_province":"NY","city":"","address_line1":"42 ROGERS AVENUE","known_use":"community garden","postal_code":"11216","owner":"Brooklyn Queens Land Trust","owner_type":"private"}},{"geometry":{"type":"Point","coordinates":[-73.99103174438318,40.72541606390621]},"type":"Feature","id":58326,"properties":{"state_province":null,"city":null,"address_line1":"18 EAST 2 STREET","known_use":"community garden","postal_code":"10003","owner":"Manhattan Land Trust","owner_type":"private"}},{"geometry":{"type":"Point","coordinates":[-73.9455558214,40.80301028089998]},"type":"Feature","id":55727,"properties":{"state_province":"NY","city":"","address_line1":"13 WEST 119 STREET","known_use":"community garden","postal_code":"10026","owner":"New York City Department of Parks and Recreation","owner_type":"public"}},{"geometry":{"type":"Point","coordinates":[-73.9825888245,40.7246512047]},"type":"Feature","id":55010,"properties":{"state_province":"NY","city":null,"address_line1":"530 EAST 6 STREET","known_use":"community garden","postal_code":"10009","owner":"New York City Department of Parks and Recreation","owner_type":"public"}},{"geometry":{"type":"Point","coordinates":[-73.95016307646986,40.67989905990957]},"type":"Feature","id":58717,"properties":{"state_province":"NY","city":"","address_line1":"97 HERKIMER STREET","known_use":"community garden","postal_code":"11216","owner":"Brooklyn Queens Land Trust","owner_type":"private"}},{"geometry":{"type":"Point","coordinates":[-73.8769353515,40.663770864]},"type":"Feature","id":54996,"properties":{"state_province":"NY","city":null,"address_line1":"825 ESSEX STREET","known_use":"parking lot","postal_code":"11208","owner":"New York City Department of Health","owner_type":"public"}},{"geometry":{"type":"Point","coordinates":[-73.9228577246,40.6846381876]},"type":"Feature","id":57536,"properties":{"state_province":"NY","city":"","address_line1":"774 HALSEY STREET","known_use":"community garden","postal_code":"11233","owner":"New York City Department of Parks and Recreation","owner_type":"public"}},{"geometry":{"type":"Point","coordinates":[-73.8820950494622,40.6709868048971]},"type":"Feature","id":57572,"properties":{"state_province":"NY","city":"","address_line1":"        SUTTER AVENUE","known_use":"community garden","postal_code":"11208","owner":"New York City Department of Parks and Recreation","owner_type":"public"}},{"geometry":{"type":"Point","coordinates":[-73.88448492214252,40.67377004879012]},"type":"Feature","id":53896,"properties":{"state_province":null,"city":null,"address_line1":"2383 PITKIN AVENUE","known_use":"community garden","postal_code":"11207","owner":"New York City Department of Parks and Recreation","owner_type":"public"}},{"geometry":{"type":"Point","coordinates":[-73.9167283645,40.823070706]},"type":"Feature","id":55180,"properties":{"state_province":"NY","city":null,"address_line1":"809 COURTLANDT AVENUE","known_use":"community garden","postal_code":"10451","owner":"New York City Department of Parks and Recreation","owner_type":"public"}},{"geometry":{"type":"Point","coordinates":[-74.00176096110947,40.65479957378014]},"type":"Feature","id":58561,"properties":{"state_province":"NY","city":null,"address_line1":"219 34 STREET","known_use":"community garden","postal_code":"11232","owner":"SUNSET GARDEN LLC","owner_type":"private"}},{"geometry":{"type":"Point","coordinates":[-73.95014012518858,40.70980061004785]},"type":"Feature","id":53755,"properties":{"state_province":"","city":"","address_line1":"17 TEN EYCK STREET","known_use":"community garden","postal_code":"11206","owner":"New York City Department of Parks and Recreation","owner_type":"public"}},{"geometry":{"type":"Point","coordinates":[-73.97106410088516,40.68570818386634]},"type":"Feature","id":53952,"properties":{"state_province":"","city":"","address_line1":"        FULTON STREET","known_use":"community garden","postal_code":"11238","owner":"New York City Department of Parks and Recreation","owner_type":"public"}},{"geometry":{"type":"Point","coordinates":[-73.95864129066467,40.694187593462935]},"type":"Feature","id":54943,"properties":{"state_province":"NY","city":"","address_line1":"913 KENT AVENUE","known_use":"community garden","postal_code":"11205","owner":"New York City Department of Environmental Protection","owner_type":"public"}},{"geometry":{"type":"Point","coordinates":[-73.95864129066467,40.694187593462935]},"type":"Feature","id":54943,"properties":{"state_province":"NY","city":"","address_line1":"913 KENT AVENUE","known_use":"community garden","postal_code":"11205","owner":"New York City Department of Environmental Protection","owner_type":"public"}},{"geometry":{"type":"Point","coordinates":[-73.9830205532,40.7293832294]},"type":"Feature","id":54666,"properties":{"state_province":"NY","city":"","address_line1":"404-16 EAST   12 STREET","known_use":"community garden","postal_code":"10009","owner":"New York City Department of Education","owner_type":"public"}},{"geometry":{"type":"Point","coordinates":[-73.93027994406907,40.69042645416077]},"type":"Feature","id":58352,"properties":{"state_province":null,"city":null,"address_line1":"95A MALCOLM X BOULEVARD","known_use":"community garden","postal_code":"11221","owner":"New York Garden Trust / New York Restoration Project","owner_type":"private"}},{"geometry":{"type":"Point","coordinates":[-73.94299864768982,40.74321716158674]},"type":"Feature","id":54997,"properties":{"state_province":"NY","city":"","address_line1":"        49 AVENUE","known_use":"community green space","postal_code":"11101","owner":"New York City Transit (MTA)","owner_type":"public"}},{"geometry":{"type":"Point","coordinates":[-73.94299864768982,40.74321716158674]},"type":"Feature","id":54997,"properties":{"state_province":"NY","city":"","address_line1":"        49 AVENUE","known_use":"community green space","postal_code":"11101","owner":"New York City Transit (MTA)","owner_type":"public"}},{"geometry":{"type":"Point","coordinates":[-73.91847174970582,40.81761421963961]},"type":"Feature","id":58599,"properties":{"state_province":"NY","city":null,"address_line1":"360 EAST 151 STREET","known_use":"community garden","postal_code":"10455","owner":"Bronx Land Trust","owner_type":"private"}},{"geometry":{"type":"Point","coordinates":[-73.89558010973809,40.66104407109968]},"type":"Feature","id":53813,"properties":{"state_province":"","city":"","address_line1":"599 ALABAMA AVENUE","known_use":"community garden","postal_code":"11207","owner":"New York City Department of Parks and Recreation","owner_type":"public"}},{"geometry":{"type":"Point","coordinates":[-73.8766093780449,40.841940351489]},"type":"Feature","id":55326,"properties":{"state_province":"NY","city":null,"address_line1":"1086 EAST 180 STREET","known_use":"community garden","postal_code":"10460","owner":"New York City Department of Parks and Recreation","owner_type":"public"}},{"geometry":{"type":"Point","coordinates":[-73.8825348504563,40.8470160159678]},"type":"Feature","id":55323,"properties":{"state_province":"NY","city":null,"address_line1":"851 HORNADAY PLACE","known_use":"community garden","postal_code":"10460","owner":"New York City Department of Parks and Recreation","owner_type":"public"}},{"geometry":{"type":"Point","coordinates":[-73.88849414067762,40.668533722395196]},"type":"Feature","id":59137,"properties":{"state_province":null,"city":null,"address_line1":"436 VAN SICLEN AVENUE","known_use":"community garden","postal_code":"11207","owner":"New York City Department of Parks and Recreation","owner_type":"public"}},{"geometry":{"type":"Point","coordinates":[-73.9406110594,40.7988358541]},"type":"Feature","id":55104,"properties":{"state_province":"NY","city":null,"address_line1":"170 EAST 117 STREET","known_use":"community garden","postal_code":"10035","owner":"New York City Department of Parks and Recreation","owner_type":"public"}},{"geometry":{"type":"Point","coordinates":[-73.95486856100898,40.68979340541919]},"type":"Feature","id":55379,"properties":{"state_province":"NY","city":"","address_line1":"1001 BEDFORD AVENUE","known_use":"community garden","postal_code":"11205","owner":"New York City Department of Parks and Recreation","owner_type":"public"}},{"geometry":{"type":"Point","coordinates":[-73.9112044715,40.8172258218]},"type":"Feature","id":55201,"properties":{"state_province":"NY","city":null,"address_line1":"666-68 ST ANNS AVENUE","known_use":"community garden","postal_code":"10455","owner":"New York City Department of Parks and Recreation","owner_type":"public"}},{"geometry":{"type":"Point","coordinates":[-73.9230009906946,40.66989094029655]},"type":"Feature","id":58646,"properties":{"state_province":"NY","city":"","address_line1":"ST JOHNS PLACE","known_use":"community garden","postal_code":"11233","owner":"Brooklyn Queens Land Trust","owner_type":"private"}},{"geometry":{"type":"Point","coordinates":[-73.8870649523359,40.665482189492984]},"type":"Feature","id":57711,"properties":{"state_province":"","city":"","address_line1":"        LIVONIA AVENUE","known_use":"community garden","postal_code":"11207","owner":"New York City Department of Parks and Recreation","owner_type":"public"}},{"geometry":{"type":"Point","coordinates":[-73.89782468171548,40.84487365047437]},"type":"Feature","id":58343,"properties":{"state_province":"","city":"","address_line1":"1818 BATHGATE AVENUE","known_use":"community garden","postal_code":"10458","owner":"New York Garden Trust / New York Restoration Project","owner_type":"private"}},{"geometry":{"type":"Point","coordinates":[-73.88723901787083,40.819934976863436]},"type":"Feature","id":58369,"properties":{"state_province":null,"city":null,"address_line1":"BRYANT AVE","known_use":"community garden","postal_code":"10474","owner":"New York City Department of Parks and Recreation","owner_type":"public"}},{"geometry":{"type":"Point","coordinates":[-73.97734549236088,40.72399836247157]},"type":"Feature","id":58477,"properties":{"state_province":null,"city":null,"address_line1":"372-74 E 8 ST","known_use":"community garden","postal_code":"10009","owner":"New York City Department of Parks and Recreation","owner_type":"public"}},{"geometry":{"type":"Point","coordinates":[-73.8911677043582,40.82823674850546]},"type":"Feature","id":58531,"properties":{"state_province":"NY","city":null,"address_line1":"1175 HOE AVENUE","known_use":"community garden","postal_code":"10459","owner":"UNIQUE PEOPLE SERVICES, INC","owner_type":"private"}},{"geometry":{"type":"Point","coordinates":[-73.95931374186513,40.683902634028264]},"type":"Feature","id":58389,"properties":{"state_province":"NY","city":"","address_line1":"474 CLASSON AVENUE","known_use":"community garden","postal_code":"11238","owner":"Brooklyn Queens Land Trust","owner_type":"private"}},{"geometry":{"type":"Point","coordinates":[-73.95893565832318,40.713784184216884]},"type":"Feature","id":56093,"properties":{"state_province":"NY","city":"","address_line1":"        GRAND STREET","known_use":"community garden","postal_code":"11211","owner":"New York City Department of Parks and Recreation","owner_type":"public"}},{"geometry":{"type":"Point","coordinates":[-73.95893565832318,40.713784184216884]},"type":"Feature","id":56093,"properties":{"state_province":"NY","city":"","address_line1":"        GRAND STREET","known_use":"community garden","postal_code":"11211","owner":"New York City Department of Parks and Recreation","owner_type":"public"}},{"geometry":{"type":"Point","coordinates":[-73.97840326495147,40.72409458697755]},"type":"Feature","id":58661,"properties":{"state_province":null,"city":null,"address_line1":"237 EAST 7 STREET","known_use":"community garden","postal_code":"10009","owner":"New York City Department of Parks and Recreation","owner_type":"public"}},{"geometry":{"type":"Point","coordinates":[-73.92710909864296,40.67878348404383]},"type":"Feature","id":54247,"properties":{"state_province":null,"city":null,"address_line1":"9 ROCHESTER AVENUE","known_use":"community garden","postal_code":"11233","owner":"New York City Department of Parks and Recreation","owner_type":"public"}},{"geometry":{"type":"Point","coordinates":[-73.9709264737,40.7870918076]},"type":"Feature","id":55096,"properties":{"state_province":"NY","city":null,"address_line1":"0 WEST 87 STREET","known_use":"community garden","postal_code":"10024","owner":"New York City Department of Parks and Recreation","owner_type":"public"}},{"geometry":{"type":"Point","coordinates":[-73.9790556349,40.7283642721]},"type":"Feature","id":55093,"properties":{"state_province":"NY","city":null,"address_line1":"200 AVENUE B","known_use":"community garden","postal_code":"10009","owner":"New York City Department of Parks and Recreation","owner_type":"public"}},{"geometry":{"type":"Point","coordinates":[-73.91406145017854,40.820561588406946]},"type":"Feature","id":58728,"properties":{"state_province":"NY","city":null,"address_line1":"747 ELTON AVENUE","known_use":"community garden","postal_code":"10445","owner":"156TH ST ASSOCIATES LLC","owner_type":"private"}},{"geometry":{"type":"Point","coordinates":[-73.9139132889,40.6642244314]},"type":"Feature","id":57169,"properties":{"state_province":"NY","city":"","address_line1":"        HERZL STREET","known_use":"community garden","postal_code":"11212","owner":"New York City Department of Parks and Recreation","owner_type":"public"}},{"geometry":{"type":"Point","coordinates":[-73.9546287059784,40.691470578759045]},"type":"Feature","id":53838,"properties":{"state_province":"NY","city":"","address_line1":"230A SPENCER STREET","known_use":"community garden","postal_code":"11205","owner":"New York City Department of Parks and Recreation","owner_type":"public"}},{"geometry":{"type":"Point","coordinates":[-73.90949072412992,40.67796083503772]},"type":"Feature","id":58604,"properties":{"state_province":"NY","city":"","address_line1":"2176 FULTON STREET","known_use":"community green space","postal_code":"11233","owner":"FULTON PLAZA REDEVELOPMENT ASSOCIATES L.P.","owner_type":"private"}},{"geometry":{"type":"Point","coordinates":[-73.92147526822437,40.69220050372401]},"type":"Feature","id":58398,"properties":{"state_province":"NY","city":"","address_line1":"7274 GROVE STREET","known_use":"community garden","postal_code":"10014","owner":"Brooklyn Queens Land Trust","owner_type":"private"}},{"geometry":{"type":"Point","coordinates":[-74.00247548501538,40.68486358791728]},"type":"Feature","id":57255,"properties":{"state_province":"","city":"","address_line1":"207 COLUMBIA STREET","known_use":"community garden","postal_code":"11231","owner":"New York City Department of Parks and Recreation","owner_type":"public"}},{"geometry":{"type":"Point","coordinates":[-73.98445874,40.720010086]},"type":"Feature","id":55016,"properties":{"state_province":"NY","city":null,"address_line1":"171 STANTON STREET","known_use":"community garden","postal_code":"10002","owner":"New York City Department of Parks and Recreation","owner_type":"public"}},{"geometry":{"type":"Point","coordinates":[-73.9119497652399,40.6618957966143]},"type":"Feature","id":53991,"properties":{"state_province":null,"city":null,"address_line1":"754 HOPKINSON AVENUE","known_use":"community garden","postal_code":"11212","owner":"New York City Department of Parks and Recreation","owner_type":"public"}},{"geometry":{"type":"Point","coordinates":[-73.90223084972611,40.815236122879135]},"type":"Feature","id":58411,"properties":{"state_province":null,"city":null,"address_line1":"941 AVENUE ST JOHN","known_use":"community garden","postal_code":"10455","owner":"New York City Department of Parks and Recreation","owner_type":"public"}},{"geometry":{"type":"Point","coordinates":[-73.9116506377,40.8244092771]},"type":"Feature","id":57885,"properties":{"state_province":"NY","city":"","address_line1":"EAST 162 STREET","known_use":"community garden","postal_code":"10451","owner":"New York City Department of Parks and Recreation","owner_type":"public"}},{"geometry":{"type":"Point","coordinates":[-73.97433845534839,40.786051593653504]},"type":"Feature","id":58562,"properties":{"state_province":"NY","city":null,"address_line1":"501 AMSTERDAM AVENUE","known_use":"community garden","postal_code":"10024","owner":"New York City Department of Education","owner_type":"public"}},{"geometry":{"type":"Point","coordinates":[-73.8877493298,40.674190127]},"type":"Feature","id":53969,"properties":{"state_province":"NY","city":null,"address_line1":"        GLENMORE AVENUE","known_use":"community garden","postal_code":"11207","owner":"New York City Department of Parks and Recreation","owner_type":"public"}},{"geometry":{"type":"Point","coordinates":[-73.9430945959,40.69483032839999]},"type":"Feature","id":57338,"properties":{"state_province":"NY","city":"","address_line1":"659 WILLOUGHBY AVENUE","known_use":"community garden","postal_code":"11206","owner":"New York City Department of Parks and Recreation","owner_type":"public"}},{"geometry":{"type":"Point","coordinates":[-73.9295509460976,40.704163135423286]},"type":"Feature","id":58544,"properties":{"state_province":"NY","city":null,"address_line1":"1036 FLUSHING AVENUE","known_use":"community garden","postal_code":"11237","owner":"Brooklyn Queens Land Trust","owner_type":"private"}},{"geometry":{"type":"Point","coordinates":[-73.9430588777838,40.683104182097104]},"type":"Feature","id":54250,"properties":{"state_province":null,"city":null,"address_line1":"324 HANCOCK STREET","known_use":"community garden","postal_code":"11216","owner":"New York City Department of Parks and Recreation","owner_type":"public"}},{"geometry":{"type":"Point","coordinates":[-73.9806751316263,40.72384189036247]},"type":"Feature","id":58318,"properties":{"state_province":null,"city":null,"address_line1":"624 EAST 6 STREET","known_use":"community garden","postal_code":"10009","owner":"New York City Department of Parks and Recreation","owner_type":"public"}},{"geometry":{"type":"Point","coordinates":[-73.9774606705927,40.72537178115944]},"type":"Feature","id":58321,"properties":{"state_province":"","city":"","address_line1":"144 AVE C","known_use":"community garden","postal_code":"10009","owner":"New York City Department of Parks and Recreation","owner_type":"public"}},{"geometry":{"type":"Point","coordinates":[-73.95607676996957,40.80440820482273]},"type":"Feature","id":58462,"properties":{"state_province":null,"city":null,"address_line1":"302 WEST 116 STREET","known_use":"community garden","postal_code":"10026","owner":"New York City Department of Parks and Recreation","owner_type":"public"}},{"geometry":{"type":"Point","coordinates":[-73.9795354297,40.7285839388]},"type":"Feature","id":55157,"properties":{"state_province":"NY","city":null,"address_line1":"537 EAST 12 STREET","known_use":"community garden","postal_code":"10009","owner":"New York City Department of Parks and Recreation","owner_type":"public"}},{"geometry":{"type":"Point","coordinates":[-73.98354450642842,40.66895320376483]},"type":"Feature","id":58662,"properties":{"state_province":"NY","city":"","address_line1":"414 6 AVENUE","known_use":"community garden","postal_code":"10011","owner":"PARK SLOPE UNITED METHODIST CHURCH","owner_type":"private"}},{"geometry":{"type":"Point","coordinates":[-73.92488268326439,40.82130541534088]},"type":"Feature","id":58302,"properties":{"state_province":"NY","city":"","address_line1":"","known_use":"community garden","postal_code":"","owner":"New York City Department of Transportation","owner_type":"public"}},{"geometry":{"type":"Point","coordinates":[-73.94728896670556,40.69310974311209]},"type":"Feature","id":53745,"properties":{"state_province":"","city":"","address_line1":"104 HART STREET","known_use":"community garden","postal_code":"11206","owner":"New York City Department of Parks and Recreation","owner_type":"public"}},{"geometry":{"type":"Point","coordinates":[-73.95487691311968,40.6818287351495]},"type":"Feature","id":58674,"properties":{"state_province":"NY","city":"","address_line1":"2 SPENCER PLACE","known_use":"community garden","postal_code":"11216","owner":"SPORT LP","owner_type":"private"}},{"geometry":{"type":"Point","coordinates":[-73.94291438746033,40.80959517557535]},"type":"Feature","id":58650,"properties":{"state_province":"","city":"","address_line1":"65 WEST 128 STREET","known_use":"community garden","postal_code":"10027","owner":"REV. LINNETTE C. WILLIAMSON MEMORIAL PARK ASSOCIATION, INC","owner_type":"private"}},{"geometry":{"type":"Point","coordinates":[-73.94291438746033,40.80959517557535]},"type":"Feature","id":58650,"properties":{"state_province":"","city":"","address_line1":"65 WEST 128 STREET","known_use":"community garden","postal_code":"10027","owner":"REV. LINNETTE C. WILLIAMSON MEMORIAL PARK ASSOCIATION, INC","owner_type":"private"}},{"geometry":{"type":"Point","coordinates":[-73.97974059094058,40.72544982053282]},"type":"Feature","id":58409,"properties":{"state_province":null,"city":null,"address_line1":"313 EAST 8 STREET","known_use":"community garden","postal_code":"10009","owner":"New York City Department of Parks and Recreation","owner_type":"public"}},{"geometry":{"type":"Point","coordinates":[-73.9814710694,40.7222823041]},"type":"Feature","id":55064,"properties":{"state_province":"NY","city":null,"address_line1":"237 EAST 3 STREET","known_use":"community garden","postal_code":"10009","owner":"New York City Department of Parks and Recreation","owner_type":"public"}},{"geometry":{"type":"Point","coordinates":[-73.97900022599076,40.72747911198477]},"type":"Feature","id":58707,"properties":{"state_province":"NY","city":null,"address_line1":"603 EAST 11 STREET","known_use":"community garden","postal_code":"10009","owner":"New York Garden Trust / New York Restoration Project","owner_type":"private"}},{"geometry":{"type":"Point","coordinates":[-73.88466625213101,40.847011998777134]},"type":"Feature","id":58314,"properties":{"state_province":null,"city":null,"address_line1":"806 EAST 181 STREET","known_use":"community garden","postal_code":"10460","owner":"Bronx Land Trust","owner_type":"private"}},{"geometry":{"type":"Point","coordinates":[-73.8909484763,40.6666834898]},"type":"Feature","id":53809,"properties":{"state_province":"NY","city":null,"address_line1":"        BRADFORD STREET","known_use":"community garden","postal_code":"11207","owner":"New York City Department of Parks and Recreation","owner_type":"public"}},{"geometry":{"type":"Point","coordinates":[-73.93911632116631,40.83576605405114]},"type":"Feature","id":58595,"properties":{"state_province":null,"city":null,"address_line1":"455 WEST 162 STREET","known_use":"community garden","postal_code":"10032","owner":"New York City Department of Parks and Recreation","owner_type":"public"}},{"geometry":{"type":"Point","coordinates":[-73.91073448369923,40.6846884564722]},"type":"Feature","id":53751,"properties":{"state_province":"","city":"","address_line1":"        COOPER STREET","known_use":"community garden","postal_code":"11207","owner":"New York City Department of Parks and Recreation","owner_type":"public"}},{"geometry":{"type":"Point","coordinates":[-73.95463849135763,40.68854670481337]},"type":"Feature","id":53728,"properties":{"state_province":null,"city":null,"address_line1":"1031 BEDFORD AVENUE","known_use":"community garden","postal_code":"11216","owner":"New York City Department of Parks and Recreation","owner_type":"public"}},{"geometry":{"type":"Point","coordinates":[-73.88954679863613,40.66841055606412]},"type":"Feature","id":53968,"properties":{"state_province":"","city":"","address_line1":"786 BLAKE AVENUE","known_use":"community garden","postal_code":"11207","owner":"New York City Department of Parks and Recreation","owner_type":"public"}},{"geometry":{"type":"Point","coordinates":[-73.89443452515258,40.847251876890915]},"type":"Feature","id":58712,"properties":{"state_province":null,"city":null,"address_line1":"MONTEREY AVENUE","known_use":"community garden","postal_code":"10457","owner":"Bronx Land Trust","owner_type":"private"}},{"geometry":{"type":"Point","coordinates":[-73.8767785422,40.6686564054]},"type":"Feature","id":53811,"properties":{"state_province":"NY","city":null,"address_line1":"        NEW LOTS AVENUE","known_use":"community garden","postal_code":"11208","owner":"New York City Department of Parks and Recreation","owner_type":"public"}},{"geometry":{"type":"Point","coordinates":[-73.8846668855483,40.8366807825427]},"type":"Feature","id":55321,"properties":{"state_province":"NY","city":null,"address_line1":"1768 BRYANT AVENUE","known_use":"community garden","postal_code":"10460","owner":"New York City Department of Parks and Recreation","owner_type":"public"}},{"geometry":{"type":"Point","coordinates":[-73.8785210943,40.6737964845]},"type":"Feature","id":53791,"properties":{"state_province":"NY","city":null,"address_line1":"213 ATKINS AVENUE","known_use":"community garden","postal_code":"11208","owner":"New York City Department of Parks and Recreation","owner_type":"public"}},{"geometry":{"type":"Point","coordinates":[-73.9175270869,40.6800424842]},"type":"Feature","id":53729,"properties":{"state_province":"NY","city":null,"address_line1":"182 SUMPTER STREET","known_use":"community garden","postal_code":"11233","owner":"New York City Department of Parks and Recreation","owner_type":"public"}},{"geometry":{"type":"Point","coordinates":[-73.9008554061072,40.6585047737325]},"type":"Feature","id":53831,"properties":{"state_province":"NY","city":null,"address_line1":"        POWELL STREET","known_use":"community garden","postal_code":"11212","owner":"New York City Department of Parks and Recreation","owner_type":"public"}},{"geometry":{"type":"Point","coordinates":[-73.9170544416,40.6774181397]},"type":"Feature","id":53819,"properties":{"state_province":"NY","city":null,"address_line1":"11A LOUIS PLACE","known_use":"community garden","postal_code":"11233","owner":"New York City Department of Parks and Recreation","owner_type":"public"}},{"geometry":{"type":"Point","coordinates":[-73.93699323224618,40.69775010259214]},"type":"Feature","id":58542,"properties":{"state_province":"NY","city":null,"address_line1":"900 BROADWAY","known_use":"community garden","postal_code":"10003","owner":"New York Garden Trust / New York Restoration Project","owner_type":"private"}},{"geometry":{"type":"Point","coordinates":[-73.98208137611789,40.72432137992366]},"type":"Feature","id":58319,"properties":{"state_province":null,"city":null,"address_line1":"542 EAST 6 STREET","known_use":"community garden","postal_code":"10009","owner":"New York City Department of Parks and Recreation","owner_type":"public"}},{"geometry":{"type":"Point","coordinates":[-74.0041895275,40.6813867111]},"type":"Feature","id":56094,"properties":{"state_province":"NY","city":"","address_line1":"        COLUMBIA STREET","known_use":"community green space","postal_code":"11231","owner":"New York City Department of Parks and Recreation","owner_type":"public"}},{"geometry":{"type":"Point","coordinates":[-74.0041895275,40.6813867111]},"type":"Feature","id":56094,"properties":{"state_province":"NY","city":"","address_line1":"        COLUMBIA STREET","known_use":"community green space","postal_code":"11231","owner":"New York City Department of Parks and Recreation","owner_type":"public"}},{"geometry":{"type":"Point","coordinates":[-73.9329652312,40.6765227339]},"type":"Feature","id":57542,"properties":{"state_province":"NY","city":"","address_line1":"1680 PACIFIC STREET","known_use":"community garden","postal_code":"11213","owner":"New York City Department of Parks and Recreation","owner_type":"public"}},{"geometry":{"type":"Point","coordinates":[-73.9410104134,40.6905446938]},"type":"Feature","id":57533,"properties":{"state_province":"NY","city":"","address_line1":"        VAN BUREN STREET","known_use":"community garden","postal_code":"11221","owner":"New York City Department of Housing Preservation and Development","owner_type":"public"}},{"geometry":{"type":"Point","coordinates":[-73.8855030729799,40.6743718126007]},"type":"Feature","id":57546,"properties":{"state_province":"NY","city":"","address_line1":"330 ASHFORD STREET","known_use":"community green space","postal_code":"11207","owner":"New York City Department of Parks and Recreation","owner_type":"public"}},{"geometry":{"type":"Point","coordinates":[-73.8855030729799,40.6743718126007]},"type":"Feature","id":57546,"properties":{"state_province":"NY","city":"","address_line1":"330 ASHFORD STREET","known_use":"community green space","postal_code":"11207","owner":"New York City Department of Parks and Recreation","owner_type":"public"}},{"geometry":{"type":"Point","coordinates":[-73.89698964147459,40.649227419317235]},"type":"Feature","id":54073,"properties":{"state_province":null,"city":null,"address_line1":"664 EAST 105 STREET","known_use":"community garden","postal_code":"11236","owner":"New York City Department of Parks and Recreation","owner_type":"public"}},{"geometry":{"type":"Point","coordinates":[-73.8940111884567,40.6674658696766]},"type":"Feature","id":53931,"properties":{"state_province":"NY","city":null,"address_line1":"        NEW JERSEY AVENUE","known_use":"community garden","postal_code":"11207","owner":"New York City Department of Parks and Recreation","owner_type":"public"}},{"geometry":{"type":"Point","coordinates":[-73.87781,40.674316]},"type":"Feature","id":54027,"properties":{"state_province":"NY","city":null,"address_line1":"2556 PITKIN AVENUE","known_use":"community garden","postal_code":"11208","owner":"New York City Department of Parks and Recreation","owner_type":"public"}},{"geometry":{"type":"Point","coordinates":[-73.88735449455281,40.673765862740204]},"type":"Feature","id":54007,"properties":{"state_province":null,"city":null,"address_line1":"        BARBEY STREET","known_use":"community garden","postal_code":"11207","owner":"New York City Department of Parks and Recreation","owner_type":"public"}},{"geometry":{"type":"Point","coordinates":[-73.9635432743,40.8038764719]},"type":"Feature","id":55130,"properties":{"state_province":"NY","city":"","address_line1":"1036-44 AMSTERDAM AVENUE","known_use":"community garden","postal_code":"10025","owner":"New York City Department of Parks and Recreation","owner_type":"public"}},{"geometry":{"type":"Point","coordinates":[-73.8907801096,40.6660410516]},"type":"Feature","id":54155,"properties":{"state_province":"NY","city":null,"address_line1":"        BRADFORD STREET","known_use":"community garden","postal_code":"11207","owner":"New York City Department of Parks and Recreation","owner_type":"public"}},{"geometry":{"type":"Point","coordinates":[-73.88407351985651,40.6741627806204]},"type":"Feature","id":54142,"properties":{"state_province":null,"city":null,"address_line1":"435 CLEVELAND STREET","known_use":"community garden","postal_code":"11208","owner":"New York City Department of Parks and Recreation","owner_type":"public"}},{"geometry":{"type":"Point","coordinates":[-73.94394487100487,40.69499110104271]},"type":"Feature","id":54225,"properties":{"state_province":null,"city":null,"address_line1":"196 VERNON AVENUE","known_use":"community garden","postal_code":"11206","owner":"New York City Department of Parks and Recreation","owner_type":"public"}},{"geometry":{"type":"Point","coordinates":[-73.8858230875673,40.6706447230499]},"type":"Feature","id":54043,"properties":{"state_province":"NY","city":null,"address_line1":"        JEROME STREET","known_use":"community garden","postal_code":"11207","owner":"New York City Department of Parks and Recreation","owner_type":"public"}},{"geometry":{"type":"Point","coordinates":[-73.9045499476,40.8296348651]},"type":"Feature","id":55200,"properties":{"state_province":"NY","city":null,"address_line1":"1185 FRANKLIN AVENUE","known_use":"community garden","postal_code":"10456","owner":"New York City Department of Parks and Recreation","owner_type":"public"}},{"geometry":{"type":"Point","coordinates":[-73.977123369,40.6483862618]},"type":"Feature","id":54038,"properties":{"state_province":"NY","city":null,"address_line1":"        EAST 4 STREET","known_use":"community garden","postal_code":"11218","owner":"New York City Department of Parks and Recreation","owner_type":"public"}},{"geometry":{"type":"Point","coordinates":[-73.98665843137523,40.68459773796217]},"type":"Feature","id":58755,"properties":{"state_province":null,"city":null,"address_line1":"195 WYCKOFF STREET","known_use":"community garden","postal_code":"11217","owner":"Wyckoff Bond Garden Trust","owner_type":"private"}},{"geometry":{"type":"Point","coordinates":[-73.88348407356933,40.8441320278837]},"type":"Feature","id":58499,"properties":{"state_province":null,"city":null,"address_line1":"2035 HONEYWELL AVENUE","known_use":"community garden","postal_code":"10460","owner":"New York City Department of Parks and Recreation","owner_type":"public"}},{"geometry":{"type":"Point","coordinates":[-73.9276411659,40.6890850805]},"type":"Feature","id":53736,"properties":{"state_province":"NY","city":null,"address_line1":"953 GATES AVENUE","known_use":"community garden","postal_code":"11221","owner":"New York City Department of Parks and Recreation","owner_type":"public"}},{"geometry":{"type":"Point","coordinates":[-73.91438155294327,40.683817184317526]},"type":"Feature","id":54223,"properties":{"state_province":null,"city":null,"address_line1":"        HOPKINSON AVENUE","known_use":"community garden","postal_code":"11233","owner":"New York City Department of Parks and Recreation","owner_type":"public"}},{"geometry":{"type":"Point","coordinates":[-73.94521180293081,40.686289928386685]},"type":"Feature","id":54228,"properties":{"state_province":null,"city":null,"address_line1":"        MONROE STREET","known_use":"community garden","postal_code":"11216","owner":"New York City Department of Parks and Recreation","owner_type":"public"}},{"geometry":{"type":"Point","coordinates":[-73.9574587453,40.7275458705]},"type":"Feature","id":54927,"properties":{"state_province":"NY","city":"","address_line1":"61 FRANKLIN STREET","known_use":"community green space","postal_code":"11222","owner":"New York City Department of Parks and Recreation","owner_type":"public"}},{"geometry":{"type":"Point","coordinates":[-73.9574587453,40.7275458705]},"type":"Feature","id":54927,"properties":{"state_province":"NY","city":"","address_line1":"61 FRANKLIN STREET","known_use":"community green space","postal_code":"11222","owner":"New York City Department of Parks and Recreation","owner_type":"public"}},{"geometry":{"type":"Point","coordinates":[-73.916029,40.675568]},"type":"Feature","id":54264,"properties":{"state_province":"NY","city":null,"address_line1":"2084 PACIFIC STREET","known_use":"community garden","postal_code":"11233","owner":"New York City Department of Parks and Recreation","owner_type":"public"}},{"geometry":{"type":"Point","coordinates":[-73.87966103424046,40.67073826940653]},"type":"Feature","id":54023,"properties":{"state_province":null,"city":null,"address_line1":"557 SHEPHERD AVENUE","known_use":"community garden","postal_code":"11208","owner":"New York City Department of Parks and Recreation","owner_type":"public"}},{"geometry":{"type":"Point","coordinates":[-73.90926415793011,40.712954597850405]},"type":"Feature","id":59224,"properties":{"state_province":"NY","city":"QUEENS","address_line1":"21-27 HIMROD STREET","known_use":"community garden","postal_code":"11385","owner":"New York City Department of Education","owner_type":"public"}},{"geometry":{"type":"Point","coordinates":[-73.8753983475962,40.6780749975364]},"type":"Feature","id":54647,"properties":{"state_province":"NY","city":null,"address_line1":"        FOUNTAIN AVENUE","known_use":"community garden","postal_code":"11208","owner":"New York City Department of Parks and Recreation","owner_type":"public"}},{"geometry":{"type":"Point","coordinates":[-73.9218733075,40.6877857771]},"type":"Feature","id":53804,"properties":{"state_province":"NY","city":"","address_line1":"        MADISON STREET","known_use":"community garden","postal_code":"11221","owner":"New York City Department of Parks and Recreation","owner_type":"public"}},{"geometry":{"type":"Point","coordinates":[-73.9218733075,40.6877857771]},"type":"Feature","id":53804,"properties":{"state_province":"NY","city":"","address_line1":"        MADISON STREET","known_use":"community garden","postal_code":"11221","owner":"New York City Department of Parks and Recreation","owner_type":"public"}},{"geometry":{"type":"Point","coordinates":[-73.91612020802239,40.82247843747241]},"type":"Feature","id":58402,"properties":{"state_province":null,"city":null,"address_line1":"364 EAST 158 STREET","known_use":"community garden","postal_code":"10451","owner":"New York City Department of Parks and Recreation","owner_type":"public"}},{"geometry":{"type":"Point","coordinates":[-73.947327522,40.7961657533]},"type":"Feature","id":55012,"properties":{"state_province":"NY","city":null,"address_line1":"1651 EAST 110 STREET","known_use":"community garden","postal_code":"10029","owner":"New York City Department of Parks and Recreation","owner_type":"public"}},{"geometry":{"type":"Point","coordinates":[-73.91151990945652,40.8156971365518]},"type":"Feature","id":58243,"properties":{"state_province":null,"city":null,"address_line1":"582 WESTCHESTER AVENUE","known_use":"community garden","postal_code":"10455","owner":"New York City Department of Parks and Recreation","owner_type":"public"}},{"geometry":{"type":"Point","coordinates":[-73.9430906734,40.6952008702]},"type":"Feature","id":54269,"properties":{"state_province":"NY","city":null,"address_line1":"253 THROOP AVENUE","known_use":"community garden","postal_code":"11206","owner":"New York City Department of Parks and Recreation","owner_type":"public"}},{"geometry":{"type":"Point","coordinates":[-73.9018466271062,40.6633611417226]},"type":"Feature","id":54654,"properties":{"state_province":"NY","city":null,"address_line1":"        POWELL STREET","known_use":"community garden","postal_code":"11212","owner":"New York City Department of Parks and Recreation","owner_type":"public"}},{"geometry":{"type":"Point","coordinates":[-73.89416656076519,40.82674145015499]},"type":"Feature","id":58618,"properties":{"state_province":"","city":"","address_line1":"1105 FOX STREET","known_use":"community garden","postal_code":"10459","owner":"New York Garden Trust / New York Restoration Project","owner_type":"private"}},{"geometry":{"type":"Point","coordinates":[-73.9898222184082,40.71300814834913]},"type":"Feature","id":58563,"properties":{"state_province":"NY","city":null,"address_line1":"25 RUTGERS STREET","known_use":"community garden","postal_code":"10002","owner":"Manhattan Land Trust","owner_type":"private"}},{"geometry":{"type":"Point","coordinates":[-73.93924877127446,40.69224458262035]},"type":"Feature","id":53739,"properties":{"state_province":null,"city":null,"address_line1":"389 KOSCIUSZKO STREET","known_use":"community garden","postal_code":"11221","owner":"New York City Department of Parks and Recreation","owner_type":"public"}},{"geometry":{"type":"Point","coordinates":[-73.907597987656,40.682391207319725]},"type":"Feature","id":53977,"properties":{"state_province":null,"city":null,"address_line1":"        GRANITE STREET","known_use":"community garden","postal_code":"11207","owner":"New York City Department of Parks and Recreation","owner_type":"public"}},{"geometry":{"type":"Point","coordinates":[-73.9006500366579,40.67271842683497]},"type":"Feature","id":53789,"properties":{"state_province":null,"city":null,"address_line1":"        GLENMORE AVENUE","known_use":"community garden","postal_code":"11207","owner":"New York City Department of Parks and Recreation","owner_type":"public"}},{"geometry":{"type":"Point","coordinates":[-73.91391347382293,40.66523448214347]},"type":"Feature","id":54054,"properties":{"state_province":null,"city":null,"address_line1":"203 HERZL STREET","known_use":"community garden","postal_code":"11212","owner":"New York City Department of Parks and Recreation","owner_type":"public"}},{"geometry":{"type":"Point","coordinates":[-73.88592722299575,40.6726283813186]},"type":"Feature","id":54127,"properties":{"state_province":null,"city":null,"address_line1":"        WARWICK STREET","known_use":"community garden","postal_code":"11207","owner":"New York City Department of Parks and Recreation","owner_type":"public"}},{"geometry":{"type":"Point","coordinates":[-73.898632054,40.8194990617]},"type":"Feature","id":55217,"properties":{"state_province":"NY","city":null,"address_line1":"864-68 REV JAMES POLITE AVENUE","known_use":"community garden","postal_code":"10459","owner":"New York City Department of Parks and Recreation","owner_type":"public"}},{"geometry":{"type":"Point","coordinates":[-73.7618489866,40.6915485451]},"type":"Feature","id":55278,"properties":{"state_province":"NY","city":null,"address_line1":"LINDEN BOULEVAR","known_use":"community garden","postal_code":"11412","owner":"New York City Department of Parks and Recreation","owner_type":"public"}},{"geometry":{"type":"Point","coordinates":[-73.9182191220594,40.67460728716931]},"type":"Feature","id":54219,"properties":{"state_province":null,"city":null,"address_line1":"1905 BERGEN STREET","known_use":"community garden","postal_code":"11233","owner":"New York City Department of Parks and Recreation","owner_type":"public"}},{"geometry":{"type":"Point","coordinates":[-73.9412224769362,40.69426969491148]},"type":"Feature","id":58493,"properties":{"state_province":"NY","city":"","address_line1":"249 HART STREET","known_use":"community garden","postal_code":"11206","owner":"New York City Department of Housing Preservation and Development","owner_type":"public"}},{"geometry":{"type":"Point","coordinates":[-73.94630647636208,40.693863160239935]},"type":"Feature","id":58602,"properties":{"state_province":"NY","city":null,"address_line1":"154 TOMPKINS AVENUE","known_use":"community garden","postal_code":"11206","owner":"WILLOUGHBY-TOMPKINS LTD","owner_type":"private"}},{"geometry":{"type":"Point","coordinates":[-73.9441601062,40.8004570173]},"type":"Feature","id":55099,"properties":{"state_province":"NY","city":null,"address_line1":"50 EAST 117 STREET","known_use":"community garden","postal_code":"10035","owner":"New York City Department of Parks and Recreation","owner_type":"public"}},{"geometry":{"type":"Point","coordinates":[-73.94829427041405,40.826155937429476]},"type":"Feature","id":58670,"properties":{"state_province":"NY","city":null,"address_line1":"522 WEST 146 STREET","known_use":"community garden","postal_code":"10031","owner":"Manhattan Land Trust","owner_type":"private"}},{"geometry":{"type":"Point","coordinates":[-73.96323323249817,40.649708986746205]},"type":"Feature","id":55047,"properties":{"state_province":"NY","city":"","address_line1":"        EAST 18 STREET","known_use":"community green space","postal_code":"11226","owner":"New York City Transit (MTA)","owner_type":"public"}},{"geometry":{"type":"Point","coordinates":[-73.96323323249817,40.649708986746205]},"type":"Feature","id":55047,"properties":{"state_province":"NY","city":"","address_line1":"        EAST 18 STREET","known_use":"community green space","postal_code":"11226","owner":"New York City Transit (MTA)","owner_type":"public"}},{"geometry":{"type":"Point","coordinates":[-73.94288186140878,40.81376161761477]},"type":"Feature","id":58488,"properties":{"state_province":"","city":"","address_line1":"131 WEST 133 STREET","known_use":"community garden","postal_code":"10030","owner":"New York City Department of Parks and Recreation","owner_type":"public"}},{"geometry":{"type":"Point","coordinates":[-73.9431155904,40.8139303585]},"type":"Feature","id":57762,"properties":{"state_province":"NY","city":"","address_line1":"126 WEST 134 ST.","known_use":"community garden","postal_code":"10030","owner":"New York City Department of Parks and Recreation","owner_type":"public"}},{"geometry":{"type":"Point","coordinates":[-73.884923148,40.6740830334]},"type":"Feature","id":57627,"properties":{"state_province":"NY","city":"","address_line1":"        ASHFORD STREET","known_use":"community green space","postal_code":"11207","owner":"New York City Department of Parks and Recreation","owner_type":"public"}},{"geometry":{"type":"Point","coordinates":[-73.884923148,40.6740830334]},"type":"Feature","id":57627,"properties":{"state_province":"NY","city":"","address_line1":"        ASHFORD STREET","known_use":"community green space","postal_code":"11207","owner":"New York City Department of Parks and Recreation","owner_type":"public"}},{"geometry":{"type":"Point","coordinates":[-73.950833,40.6882]},"type":"Feature","id":54642,"properties":{"state_province":"NY","city":null,"address_line1":"496 GREENE AVENUE","known_use":"community garden","postal_code":"11216","owner":"New York City Housing Authority (NYCHA)","owner_type":"public"}},{"geometry":{"type":"Point","coordinates":[-73.895002,40.667594]},"type":"Feature","id":54641,"properties":{"state_province":"NY","city":null,"address_line1":"648 BLAKE AVENUE","known_use":"community garden","postal_code":"11207","owner":"New York City Department of Education","owner_type":"public"}},{"geometry":{"type":"Point","coordinates":[-73.90335023403168,40.836042085592446]},"type":"Feature","id":58669,"properties":{"state_province":"NY","city":"","address_line1":"1410 WASHINGTON AVENUE","known_use":"community garden","postal_code":"10456","owner":"New York City Housing Authority (NYCHA)","owner_type":"public"}},{"geometry":{"type":"Point","coordinates":[-73.97962897780486,40.721813116319495]},"type":"Feature","id":58622,"properties":{"state_province":null,"city":null,"address_line1":"EAST 4 STREET","known_use":"community garden","postal_code":"10009","owner":"Manhattan Land Trust","owner_type":"private"}},{"geometry":{"type":"Point","coordinates":[-73.9093156178829,40.820702962414984]},"type":"Feature","id":58423,"properties":{"state_province":null,"city":null,"address_line1":"815 EAGLE AVENUE","known_use":"community garden","postal_code":"10456","owner":"New York City Department of Parks and Recreation","owner_type":"public"}},{"geometry":{"type":"Point","coordinates":[-73.94456577597806,40.69388650436222]},"type":"Feature","id":58492,"properties":{"state_province":null,"city":null,"address_line1":"171 HART STREET","known_use":"community garden","postal_code":"11206","owner":"Brooklyn Queens Land Trust","owner_type":"private"}},{"geometry":{"type":"Point","coordinates":[-73.95731095974442,40.68797050045011]},"type":"Feature","id":58484,"properties":{"state_province":"","city":"","address_line1":"322 FRANKLIN AVENUE","known_use":"community garden","postal_code":"11238","owner":"New York Garden Trust / New York Restoration Project","owner_type":"private"}},{"geometry":{"type":"Point","coordinates":[-73.92558244421478,40.69179523904861]},"type":"Feature","id":58629,"properties":{"state_province":"","city":"","address_line1":"BROADWAY","known_use":"community garden","postal_code":"10001","owner":"Brooklyn Queens Land Trust","owner_type":"private"}},{"geometry":{"type":"Point","coordinates":[-73.94297336492882,40.8097962690765]},"type":"Feature","id":58489,"properties":{"state_province":"NY","city":null,"address_line1":"54 WEST 129 STREET","known_use":"community garden","postal_code":"10027","owner":"REV. LINNETTE C. WILLIAMSON MEMORIAL PARK ASSOCIATION, INC","owner_type":"private"}},{"geometry":{"type":"Point","coordinates":[-73.91927381934212,40.80589206664055]},"type":"Feature","id":58583,"properties":{"state_province":"NY","city":"","address_line1":"180 BROOK AVENUE","known_use":"community garden","postal_code":"10454","owner":"New York City Housing Authority (NYCHA)","owner_type":"public"}},{"geometry":{"type":"Point","coordinates":[-73.96342476213913,40.80503661076397]},"type":"Feature","id":58736,"properties":{"state_province":"NY","city":null,"address_line1":"WEST 113 STREET","known_use":"community garden","postal_code":"10025","owner":"THE TRUSTEES OF COLUMBIA UNIVERSITY","owner_type":"private"}},{"geometry":{"type":"Point","coordinates":[-73.91933730698656,40.66362937085714]},"type":"Feature","id":58506,"properties":{"state_province":null,"city":null,"address_line1":"746 HOWARD AVENUE","known_use":"community garden","postal_code":"11233","owner":"New York City Department of Citywide Administrative Services","owner_type":"public"}},{"geometry":{"type":"Point","coordinates":[-73.8719778612,40.6736850565]},"type":"Feature","id":54051,"properties":{"state_province":"NY","city":null,"address_line1":"        DOSCHER STREET","known_use":"community garden","postal_code":"11208","owner":"New York City Department of Parks and Recreation","owner_type":"public"}},{"geometry":{"type":"Point","coordinates":[-73.94033385973883,40.71481036692607]},"type":"Feature","id":58833,"properties":{"state_province":"NY","city":"","address_line1":"ORIENT AVENUE","known_use":"community green space","postal_code":"11211","owner":"New York City Department of Parks and Recreation","owner_type":"public"}},{"geometry":{"type":"Point","coordinates":[-73.97590582725054,40.71829096799993]},"type":"Feature","id":58568,"properties":{"state_province":"NY","city":"","address_line1":"595 FDR Drive","known_use":"community garden","postal_code":"10002","owner":"New York City Housing Authority (NYCHA)","owner_type":"public"}},{"geometry":{"type":"Point","coordinates":[-73.9515565124052,40.677979222767114]},"type":"Feature","id":58741,"properties":{"state_province":"NY","city":"","address_line1":"1233 PACIFIC STREET","known_use":"community garden","postal_code":"11216","owner":"Brooklyn Queens Land Trust","owner_type":"private"}},{"geometry":{"type":"Point","coordinates":[-74.0844964838964,40.644304372593176]},"type":"Feature","id":58742,"properties":{"state_province":"NY","city":"","address_line1":"WESTERVELT AVENUE","known_use":"community garden","postal_code":"10301","owner":"New York Garden Trust / New York Restoration Project","owner_type":"private"}},{"geometry":{"type":"Point","coordinates":[-73.90532717956718,40.67286803706169]},"type":"Feature","id":58577,"properties":{"state_province":"NY","city":null,"address_line1":"130 LIBERTY AVENUE","known_use":"community garden","postal_code":"11212","owner":"New York Garden Trust / New York Restoration Project","owner_type":"private"}},{"geometry":{"type":"Point","coordinates":[-73.92805760500977,40.67760615928785]},"type":"Feature","id":58636,"properties":{"state_province":null,"city":null,"address_line1":"21 HUNTERFLY PLACE","known_use":"community garden","postal_code":"11233","owner":"New York City Department of Parks and Recreation","owner_type":"public"}},{"geometry":{"type":"Point","coordinates":[-73.88976056011589,40.6716507985519]},"type":"Feature","id":58639,"properties":{"state_province":"NY","city":null,"address_line1":"335 VAN SICLEN AVENUE","known_use":"community garden","postal_code":"11207","owner":"New York City Department of Citywide Administrative Services","owner_type":"public"}},{"geometry":{"type":"Point","coordinates":[-73.93440834808108,40.79429144856212]},"type":"Feature","id":58658,"properties":{"state_province":null,"city":null,"address_line1":"437-39 EAST 114 STREET","known_use":"community garden","postal_code":"10029","owner":"New York City Department of Parks and Recreation","owner_type":"public"}},{"geometry":{"type":"Point","coordinates":[-73.89295907031418,40.66067546931618]},"type":"Feature","id":58671,"properties":{"state_province":"NY","city":"","address_line1":"673 SHEFFIELD AVENUE","known_use":"community garden","postal_code":"11207","owner":"Brooklyn Queens Land Trust","owner_type":"private"}},{"geometry":{"type":"Point","coordinates":[-73.91946525529562,40.687728792246254]},"type":"Feature","id":54260,"properties":{"state_province":"","city":"","address_line1":"1464 BROADWAY","known_use":"community garden","postal_code":"11221","owner":"New York City Department of Parks and Recreation","owner_type":"public"}},{"geometry":{"type":"Point","coordinates":[-73.9393278739,40.8276657429]},"type":"Feature","id":55148,"properties":{"state_province":"NY","city":null,"address_line1":"212 BRADHURST AVENUE","known_use":"community garden","postal_code":"10039","owner":"New York City Department of Parks and Recreation","owner_type":"public"}},{"geometry":{"type":"Point","coordinates":[-73.92902255674069,40.832577647081756]},